[
  {
    "lat": "43.6463654",
    "lng": "-79.4023122",
    "id": 1358948,
    "name": "Sentaler Showroom",
    "phone": "416-238-7480",
    "email": "info@sentaler.com",
    "web": "http:\/\/sentaler.com",
    "webdisplay": "sentaler.com",
    "tagsvalue": "Canada",
    "tags": [
      {
        "tag": "Canada"
      }
    ],
    "schedule": "Monday - Friday: 9 AM - 5:30 PM EST\r<br>Evenings & weekends by appointment",
    "address": "555 Richmond St. West, Suite 404 ",
    "country": "Canada",
    "state": "ON",
    "city": "Toronto",
    "postal": "M5V 3B1"
  },
  {
    "lat": "45.4993272",
    "lng": "-73.5785271",
    "id": 1358950,
    "name": "Holt Refrew (Montreal)",
    "phone": "1-514-842-5111",
    "web": "https:\/\/www.holtrenfrew.com\/",
    "address": "1300 Sherbrook Street West",
    "country": "Canada",
    "state": "QC",
    "city": "Montreal",
    "postal": "H3G 1H9"
  },
  {
    "lat": "43.5930784",
    "lng": "-79.6424911",
    "id": 1358951,
    "name": "Holt Refrew (Square One)",
    "phone": "1-905-897-1044",
    "web": "https:\/\/www.holtrenfrew.com\/",
    "address": "100 City Centre Drive",
    "country": "Canada",
    "state": "ON",
    "city": "Mississauga",
    "postal": "L5B 2C9"
  },
  {
    "lat": "51.0460565",
    "lng": "-114.071914",
    "id": 1358952,
    "name": "Holt Renfrew (Calgary)",
    "phone": "1-403-269-7341",
    "web": "https:\/\/www.holtrenfrew.com\/",
    "address": "510 8th Avenue SW",
    "country": "Canada",
    "state": "AB",
    "city": "Calgary",
    "postal": "T2P 4H9"
  },
  {
    "lat": "53.5426546",
    "lng": "-113.4947705",
    "id": 1358953,
    "name": "Holt Renfrew (Edmonton)",
    "phone": "1-780-425-5300",
    "web": "https:\/\/www.holtrenfrew.com\/",
    "address": "10180 101 St. Northwest",
    "country": "Canada",
    "state": "AB",
    "city": "Edmonton",
    "postal": "T5J 3S4"
  },
  {
    "lat": "40.7580975",
    "lng": "-73.9769439",
    "id": 1358954,
    "name": "Saks Fifth Avenue (New York)",
    "phone": "1-212-753-4000",
    "web": "https:\/\/www.saksfifthavenue.com\/",
    "address": "611 5th Avenue",
    "country": "USA",
    "state": "NY",
    "city": "New York",
    "postal": "10022"
  },
  {
    "lat": "38.9650644",
    "lng": "-77.0872941",
    "id": 1358955,
    "name": "Saks Fifth Avenue (Chevy Chase)",
    "phone": "1-301-657-9000",
    "web": "https:\/\/www.saksfifthavenue.com\/",
    "address": "5555 Wisconsin Avenue",
    "country": "USA",
    "state": "MD",
    "city": "Chevy Chase",
    "postal": "20815"
  },
  {
    "lat": "42.559779",
    "lng": "-83.1854027",
    "id": 1358956,
    "name": "Saks Fifth Avenue (Troy)",
    "phone": "1-248-643-9000",
    "web": "https:\/\/www.saksfifthavenue.com\/",
    "webdisplay": "www.saksfifthavenue.com\/",
    "address": "2901 W Big Beaver Road",
    "country": "USA",
    "state": "MI",
    "city": "Troy",
    "postal": "48084"
  },
  {
    "lat": "43.6517906",
    "lng": "-79.3801688",
    "id": 1358957,
    "name": "Saks Fifth Avenue (Queen Street)",
    "phone": "1-416-507-3100",
    "web": "https:\/\/www.saksfifthavenue.com\/",
    "address": "176 Yonge Street",
    "country": "Canada",
    "state": "ON",
    "city": "Toronto",
    "postal": "M5C 2L7"
  },
  {
    "lat": "43.6116933",
    "lng": "-79.557183",
    "id": 1358958,
    "name": "Saks Fifth Avenue (Sherway Gardens)",
    "phone": "1-416-621-4625",
    "web": "https:\/\/www.saksfifthavenue.com\/",
    "address": "25 West Mall",
    "country": "Canada",
    "state": "ON",
    "city": "Toronto",
    "postal": "M9C 1B8"
  },
  {
    "lat": "50.9978823",
    "lng": "-114.0740046",
    "id": 1358959,
    "name": "Saks Fifth Avenue (Chinook Centre)",
    "phone": "1-403-440-2100",
    "web": "https:\/\/www.saksfifthavenue.com\/",
    "address": "6455 Macleod Trail SW",
    "country": "Canada",
    "state": "AB",
    "city": "Calgary",
    "postal": "T2H 0K8"
  },
  {
    "lat": "32.8685033",
    "lng": "-96.7735168",
    "id": 1358964,
    "name": "Neiman Marcus (Northpark)",
    "phone": "1-214-363-8311 \/\/ 1-800-756-5784",
    "web": "https:\/\/www.neimanmarcus.com\/",
    "address": "8687 North Central Expressway, Suite 400",
    "country": "USA",
    "state": "TX",
    "city": "Dallas",
    "postal": "75225"
  },
  {
    "lat": "41.8960672",
    "lng": "-87.6235834",
    "id": 1358965,
    "name": "Neiman Marcus (Michigan Ave)",
    "phone": "1-312-642-5900 \/\/ 1-800-642-4480",
    "web": "https:\/\/www.neimanmarcus.com\/",
    "address": "737 North Michigan Ave",
    "country": "USA",
    "state": "IL",
    "city": "Chicago",
    "postal": "60611"
  },
  {
    "lat": "40.7397714",
    "lng": "-74.3641785",
    "id": 1358966,
    "name": "Neiman Marcus (Short Hills)",
    "phone": "1-973-912-0080 \/\/ 1-877-777-5321",
    "web": "https:\/\/www.neimanmarcus.com\/",
    "address": "1200 Morris Turnpike",
    "country": "USA",
    "state": "NJ",
    "city": "Short Hills",
    "postal": "7078"
  },
  {
    "lat": "43.7686369",
    "lng": "-79.3884264",
    "id": 1358968,
    "name": "Andrews (Bayview Village)",
    "phone": "1-416-225-0049",
    "web": "www.andrewsco.com\/",
    "address": "2901 Bayview Ave",
    "country": "Canada",
    "state": "ON",
    "city": "Toronto",
    "postal": "M2K 1E6"
  },
  {
    "lat": "43.6719078",
    "lng": "-79.3948697",
    "id": 1358969,
    "name": "Andrews (Yorkville Village)",
    "phone": "1-416-969-9991",
    "email": "andrewsyorkville@andrewsco.com",
    "web": "www.andrewsco.com\/",
    "address": "87 Avenue Road",
    "country": "Canada",
    "state": "ON",
    "city": "Toronto",
    "postal": "M5R 3R9"
  },
  {
    "lat": "43.6116933",
    "lng": "-79.557183",
    "id": 1358970,
    "name": "Andrews (Sherway Gardens)",
    "phone": "1-416-622-1515",
    "web": "www.andrewsco.com\/",
    "address": "25 The West Mall",
    "country": "Canada",
    "state": "ON",
    "city": "Etobicoke",
    "postal": "M9C 1B8"
  },
  {
    "lat": "45.5021973",
    "lng": "-73.5602649",
    "id": 1358971,
    "name": "Boutique Europa (World Trade Centre Montreal)",
    "phone": "1-514-844-4965",
    "web": "http:\/\/www.europagroup.ca\/",
    "address": "393 Saint Jacque Street",
    "country": "Canada",
    "state": "QC",
    "city": "Montreal",
    "postal": "H2Y 1N9"
  },
  {
    "lat": "42.9546263",
    "lng": "-81.2914101",
    "id": 1358972,
    "name": "Channer's",
    "phone": "1-519-472-3470",
    "email": "info@channers.com",
    "web": "http:\/\/channers.com\/",
    "address": "581 Wonderland Road South",
    "country": "Canada",
    "state": "ON",
    "city": "London",
    "postal": "N6K 1L5"
  },
  {
    "lat": "43.8439613",
    "lng": "-79.6284714",
    "id": 1358979,
    "name": "Femme By Christina (Kleinburg Village)",
    "phone": "1-905-893-0697",
    "email": "info@femmebychristina.com",
    "web": "https:\/\/www.femmebychristina.com\/",
    "address": "10522-A Islington Avenue",
    "country": "Canada",
    "state": "ON",
    "city": "Kleinburg",
    "postal": "L0J 1C0"
  },
  {
    "lat": "50.9521967",
    "lng": "-114.0659021",
    "id": 1358984,
    "name": "Blu's (South Centre Mall)",
    "phone": "1-403-225-8315",
    "email": "SouthcentreManager@blus.com",
    "web": "https:\/\/www.blus.com\/",
    "address": "100 Anderson Rd SE (Unit 265)",
    "country": "Canada",
    "state": "AB",
    "city": "Calgary",
    "postal": "T2J 3V1"
  },
  {
    "lat": "53.5426546",
    "lng": "-113.4947705",
    "id": 1358985,
    "name": "Blu's (Manulife Place)",
    "phone": "1-780-425-4544",
    "email": "ManulifeManager@blus.com",
    "web": "https:\/\/www.blus.com\/",
    "address": "10180 101 Street",
    "country": "Canada",
    "state": "AB",
    "city": "Edmonton",
    "postal": "T5J 3S4"
  },
  {
    "lat": "43.1360847",
    "lng": "-79.2240958",
    "id": 1358988,
    "name": "Gary Waters (Pen Centre Mall)",
    "phone": "1-905-688-2233",
    "web": "https:\/\/www.garywaters.ca\/",
    "address": "221 Glendale Ave",
    "country": "Canada",
    "state": "ON",
    "city": "St. Catherines",
    "postal": "L2T 2K9"
  },
  {
    "lat": "43.4452767",
    "lng": "-79.6685121",
    "id": 1358989,
    "name": "LemonWood (Oakville)",
    "phone": "1-905-827-0788 \/\/ 1-855-827-0778",
    "web": "https:\/\/lemonwood.ca\/",
    "webdisplay": "lemonwood.ca\/",
    "address": "182 Lakeshore Road East",
    "country": "Canada",
    "state": "ON",
    "city": "Oakville",
    "postal": "L6J 1H6"
  },
  {
    "lat": "42.3056559",
    "lng": "-82.8843766",
    "id": 1358990,
    "name": "Shoe Box",
    "phone": "1-519-735-3771",
    "email": "windsorshoebox@gmail.com",
    "web": "http:\/\/www.shoeboxcanada.ca\/",
    "address": "1640 Lesperance Road",
    "country": "Canada",
    "state": "ON",
    "city": "Tecumseh",
    "postal": "N8N 1Y3"
  },
  {
    "lat": "46.773431",
    "lng": "-71.2786633",
    "id": 1358991,
    "name": "Le Prive",
    "web": "https:\/\/boutiqueleprive.com\/",
    "webdisplay": "boutiqueleprive.com\/",
    "address": "2600 Boulevard Laurier #152",
    "country": "Canada",
    "state": "QC",
    "city": "Quebec City",
    "postal": "G1V 4T3"
  },
  {
    "lat": "22.2851589",
    "lng": "114.15884119999998",
    "id": 1359045,
    "name": "Lane Crawford (IFC Mall)",
    "phone": "+85221182288",
    "web": "https:\/\/www.lanecrawford.com",
    "webdisplay": "www.lanecrawford.com",
    "address": "8 Finance St",
    "country": "Hong Kong",
    "state": "Hong Kong",
    "city": "Central"
  },
  {
    "lat": "22.2950689",
    "lng": "114.1668661",
    "id": 1359046,
    "name": "Lane Crawford (Canton Road)",
    "phone": "+85221182288",
    "web": "https:\/\/www.lanecrawford.com",
    "webdisplay": "www.lanecrawford.com",
    "address": "3 Canton Rd",
    "country": "Hong Kong",
    "state": "Hong Kong",
    "city": "Harbour City"
  },
  {
    "lat": "39.907024",
    "lng": "116.45859599999994",
    "id": 1359047,
    "name": "Lane Crawford (Yintai Centre Beijing)",
    "web": "https:\/\/www.lanecrawford.com",
    "webdisplay": "www.lanecrawford.com",
    "address": "2, Jianguomenwai Street",
    "country": "China",
    "state": "Beijing",
    "city": "Chaoyang District"
  },
  {
    "lat": "31.2246478",
    "lng": "121.47794870000007",
    "id": 1359048,
    "name": "Lane Crawford (Shanghai Times Square)",
    "web": "https:\/\/www.lanecrawford.com",
    "webdisplay": "www.lanecrawford.com",
    "address": "99 Huai Hai Zhong Road",
    "country": "China",
    "state": "Shanghai"
  },
  {
    "lat": "43.6815399",
    "lng": "-79.39155849999997",
    "id": 2558782,
    "name": "LemonWood (Summerhill)",
    "phone": "416-929-3018 ",
    "email": "info@lemonwood.com",
    "web": "https:\/\/lemonwood.ca\/",
    "webdisplay": "lemonwood.ca\/",
    "address": "1198 Yonge Street, Toronto",
    "country": "Canada",
    "state": "ON",
    "city": "Toronto",
    "postal": "M4T 1W1"
  },
  {
    "lat": "45.4573592",
    "lng": "-73.86205559999996",
    "id": 2558783,
    "name": "Boutique Lauri’s ",
    "phone": "514-505-6155",
    "email": "LaurisBoutique@Videotron.ca",
    "web": "https:\/\/www.laurisboutique.ca\/",
    "webdisplay": "laurisboutique.ca\/",
    "address": "3549 Saint-Charles Blvd",
    "country": "Canada",
    "state": "QC",
    "city": "Kirkland",
    "postal": "H9H 3C4"
  },
  {
    "lat": "43.7146059",
    "lng": "-79.39980779999996",
    "id": 2558784,
    "name": "Carbon (Lawrence Park)",
    "phone": "416-487-0795",
    "email": "info@thecarboncollective.ca",
    "web": "https:\/\/www.carbonfashion.ca\/",
    "webdisplay": "carbonfashion.ca\/",
    "schedule": "Monday – Saturday: 10am – 6pm\r<br>Sunday: 12pm – 5pm ",
    "address": "2599 Yonge St",
    "country": "Canada",
    "state": "ON",
    "city": "Toronto",
    "postal": "M4P 2J1"
  },
  {
    "lat": "43.6783788",
    "lng": "-79.3902579",
    "id": 2558785,
    "name": "Carbon (Rosedale)",
    "phone": "647-345-0795",
    "web": "https:\/\/www.carbonfashion.ca\/",
    "webdisplay": "carbonfashion.ca\/",
    "address": "1096 Younge St",
    "country": "Canada",
    "state": "ON",
    "city": "Toronto",
    "postal": "M4N 2L6"
  },
  {
    "lat": "43.8546701",
    "lng": "-79.43698410000002",
    "id": 2558788,
    "name": "Carbon (HillCrest Mall)",
    "phone": "905-884-0000",
    "web": "https:\/\/www.carbonfashion.ca\/",
    "webdisplay": "carbonfashion.ca\/",
    "address": "9350 Yonge St",
    "country": "Canada",
    "state": "ON",
    "city": "Toronto",
    "postal": "L6C 1V4"
  }
]